City,Lat,Lng,Max Temp (F),Humidity (%),Cloudiness (%),Windspeed (mph),Country,Date
Jamestown,42.097,-79.2353,78.85,47,1,8.05,US,1627341823
Ushuaia,-54.8,-68.3,35.26,80,75,9.22,AR,1627341822
Kapaa,22.0752,-159.319,84.52,77,75,5.01,US,1627341742
Cape Town,-33.9258,18.4232,58.08,60,0,1.01,ZA,1627341739
Avarua,-21.2078,-159.775,78.85,73,40,9.22,CK,1627341491
Juneau,58.3019,-134.4197,64.45,77,75,10.36,US,1627341920
Rikitea,-23.1203,-134.9692,74.35,77,77,18.66,PF,1627341758
Iqaluit,63.7506,-68.5145,49.73,81,75,2.3,CA,1627341857
Upernavik,72.7868,-56.1549,44.15,81,100,4.9,GL,1627341687
Vaini,-21.2,-175.2,77.16,88,75,9.22,TO,1627341762
Ambilobe,-13.2,49.05,70.23,64,96,3.74,MG,1627341921
Puerto Ayora,-0.7393,-90.3518,72.55,83,46,8.01,EC,1627341832
Butaritari,3.0707,172.7902,82.26,75,78,7.87,KI,1627341824
Tabas,33.5959,56.9244,90.79,22,0,18.48,IR,1627341910
Atuona,-9.8,-139.0333,77.79,67,50,23.35,PF,1627341758
Kiunga,-6.1219,141.2906,72.72,97,100,1.61,PG,1627341851
Hobart,-42.8794,147.3294,54.27,82,75,1.99,AU,1627341703
Constantine,36.365,6.6147,74.61,46,40,1.14,DZ,1627341773
Lagoa,39.05,-27.9833,70.74,89,83,7.65,PT,1627341887
Hasaki,35.7333,140.8333,73.69,91,100,16.24,JP,1627341620
Tasiilaq,65.6145,-37.6368,48.36,89,52,4.07,GL,1627341849
Muros,42.7762,-9.0603,64.24,82,53,6.44,ES,1627341619
Slave Lake,55.2834,-114.769,69.78,60,1,5.75,CA,1627341922
Hare Bay,48.8499,-54.0148,69.19,73,53,8.7,CA,1627341923
Mahébourg,-20.4081,57.7,68.29,94,75,17.27,MU,1627341763
Venice of the Philippines,4.6628,119.3928,84.65,77,81,15.75,PH,1627341923
Cabo San Lucas,22.8909,-109.9124,94.8,66,1,12.66,MX,1627341839
Mūl,20.0667,79.6667,77.49,83,100,10.16,IN,1627341923
Zhigansk,66.7697,123.3711,55.72,67,24,16.71,RU,1627341924
Xining,36.6167,101.7667,54.1,87,85,2.66,CN,1627341924
Skjervøy,70.0311,20.9714,50.34,94,14,3.31,NO,1627341924
Caconda,-13.7333,15.0667,54.91,34,19,4.36,AO,1627341924
Bengkulu,-3.8004,102.2655,73.62,76,3,4.79,ID,1627341852
Nemuro,43.3236,145.575,60.37,99,100,14.94,JP,1627341925
Albany,42.6001,-73.9662,82.63,53,0,8.97,US,1627341825
Broken Hill,-31.95,141.4333,56.91,41,7,18.41,AU,1627341925
Tuktoyaktuk,69.4541,-133.0374,51.8,71,90,3.44,CA,1627341745
Pisco,-13.7,-76.2167,66.25,77,0,16.11,PE,1627341817
New Norfolk,-42.7826,147.0587,53.92,82,100,3.98,AU,1627341857
Dobrinka,52.1653,40.4731,63.63,56,68,4.79,RU,1627341926
East London,-33.0153,27.9116,63.64,26,100,11.9,ZA,1627341721
Beloha,-25.1667,45.05,61.5,67,60,11.74,MG,1627341845
Mossamedes,-15.1961,12.1522,65.91,80,0,1.66,AO,1627341926
Busselton,-33.65,115.3333,49.08,58,99,33.2,AU,1627341757
Saint Paul Harbor,57.79,-152.4072,62.11,59,90,5.75,US,1627341764
Chui,-33.6971,-53.4616,48.18,82,62,9.73,UY,1627341758
Puerto Madryn,-42.7692,-65.0385,43.18,59,98,26.96,AR,1627341851
Biak,-0.9131,122.8766,73.92,76,78,5.08,ID,1627341927
Mar del Plata,-38.0023,-57.5575,43.0,66,40,5.01,AR,1627341714
Río Gallegos,-51.6226,-69.2181,39.25,81,90,8.05,AR,1627341824
Hong Kong,22.2855,114.1577,90.21,85,94,1.01,HK,1627341638
San Jerónimo,-11.9472,-75.2829,53.42,57,29,7.49,PE,1627341927
Ilulissat,69.2167,-51.1,55.42,54,20,29.93,GL,1627341673
Hermanus,-34.4187,19.2345,56.84,61,28,6.53,ZA,1627341669
Meulaboh,4.1363,96.1285,76.39,89,54,5.32,ID,1627341881
Torbay,47.6666,-52.7314,60.67,82,75,8.05,CA,1627341867
Klaksvík,62.2266,-6.589,50.92,99,100,7.31,FO,1627341930
Hilo,19.7297,-155.09,76.73,91,90,6.91,US,1627341844
Bluff,-46.6,168.3333,48.79,76,29,19.57,NZ,1627341841
Hithadhoo,-0.6,73.0833,80.19,78,96,8.52,MV,1627341825
Port Hedland,-20.3167,118.5667,59.05,100,66,5.75,AU,1627341916
Mataura,-46.1927,168.8643,48.47,89,39,3.98,NZ,1627341688
Maningrida,-12.0667,134.2667,71.1,73,73,8.01,AU,1627341930
Dwārka,22.2394,68.9678,82.36,84,100,20.94,IN,1627341793
Sechura,-5.5569,-80.8222,72.54,68,8,18.77,PE,1627341792
Gilgit,35.9221,74.3087,87.89,50,8,2.59,PK,1627341931
Bethel,41.3712,-73.414,84.92,72,1,4.61,US,1627341830
Nong Khae,14.3406,100.8673,78.75,88,93,5.75,TH,1627341931
Kasiri,8.9412,-13.1148,75.47,93,87,6.55,SL,1627341932
San Patricio,28.017,-97.5169,93.88,42,5,11.88,US,1627341685
Flinders,-34.5833,150.8552,64.06,64,79,4.0,AU,1627341900
Hualmay,-11.0964,-77.6139,64.87,82,28,11.05,PE,1627341932
Provideniya,64.3833,-173.3,50.11,81,90,4.47,RU,1627341718
Mayo,38.8876,-76.5119,88.09,72,20,6.91,US,1627341896
Urdoma,61.7533,48.5442,42.62,96,22,5.66,RU,1627341933
Clyde River,70.4692,-68.5914,39.43,93,90,3.44,CA,1627341887
Ternate,0.8,127.4,81.39,80,86,9.64,ID,1627341933
Port Elizabeth,-33.918,25.5701,69.1,26,0,13.8,ZA,1627341820
Marsh Harbour,26.5412,-77.0636,83.73,72,7,11.45,BS,1627341900
Olafsvik,64.8945,-23.7142,49.86,85,100,11.05,IS,1627341820
Ürümqi,43.801,87.6005,79.75,23,0,11.18,CN,1627341847
Punta Arenas,-53.15,-70.9167,42.91,75,0,8.05,CL,1627341755
Dunedin,-45.8742,170.5036,49.01,68,79,8.88,NZ,1627341674
Isfana,39.8386,69.5306,72.16,38,0,2.91,KG,1627341934
São José do Rio Pardo,-21.5956,-46.8886,61.36,36,0,5.17,BR,1627341934
Ponta do Sol,32.6667,-17.1,74.03,79,6,7.96,PT,1627341833
George Town,5.4112,100.3354,82.89,88,20,0.0,MY,1627341893
Wenling,28.3669,121.36,79.92,93,100,9.51,CN,1627341935
Yellowknife,62.456,-114.3525,68.52,60,40,16.11,CA,1627341829
Khatanga,71.9667,102.5,60.26,65,59,17.38,RU,1627341745
Zemio,5.0314,25.1361,69.1,99,100,4.52,CF,1627341935
Poum,-20.2333,164.0167,70.79,69,100,8.97,NC,1627341677
Narsaq,60.9167,-46.05,55.62,72,20,1.79,GL,1627341619
Ola,59.5833,151.2833,56.08,91,100,3.38,RU,1627341855
Burlington,39.8835,-74.6413,91.11,61,1,5.75,US,1627341614
Palmer,42.1584,-72.3287,83.32,57,35,6.67,US,1627341936
Chokurdakh,70.6333,147.9167,43.79,69,96,12.33,RU,1627341751
Wanning,18.8003,110.3967,80.58,87,76,7.2,CN,1627341936
Shingū,33.7333,135.9833,83.39,66,61,4.14,JP,1627341922
Cherskiy,68.75,161.3,52.47,51,6,16.69,RU,1627341848
Casablanca,33.5928,-7.6192,71.82,73,54,18.01,MA,1627341936
Fortuna,40.5982,-124.1573,97.48,80,1,14.97,US,1627341839
High Level,58.5169,-117.136,75.31,41,75,4.61,CA,1627341698
Narrabri,-30.3167,149.7833,52.52,80,8,4.27,AU,1627341825
Jocón,15.2833,-86.9667,80.15,88,49,2.98,HN,1627341937
Bay Roberts,47.5999,-53.2648,61.43,83,15,3.0,CA,1627341937
Olinda,-8.0089,-34.8553,71.33,88,40,4.61,BR,1627341900
Ondarroa,43.3167,-2.4167,64.8,90,33,3.22,ES,1627341938
Sekoma,-24.4,23.8833,43.32,48,0,9.8,BW,1627341938
Novy Urengoy,66.0833,76.6333,48.6,92,100,15.52,RU,1627341938
Severo-Kuril'sk,50.6789,156.125,59.58,89,100,6.02,RU,1627341554
Baruun-Urt,46.6806,113.2792,59.99,74,96,3.18,MN,1627341927
Tuatapere,-46.1333,167.6833,48.81,85,74,4.97,NZ,1627341857
Valparaíso,-33.0393,-71.6273,56.84,77,0,9.22,CL,1627341932
Taoudenni,22.6783,-3.9836,101.35,8,0,9.55,ML,1627341655
Falam,22.9167,93.6833,64.63,99,100,1.34,MM,1627341939
Alofi,-19.0595,-169.9187,80.49,74,40,3.44,NU,1627341924
Takaka,-40.85,172.8,54.37,68,55,7.76,NZ,1627341939
Banda Aceh,5.5577,95.3222,79.61,84,74,12.08,ID,1627341643
Saskylakh,71.9167,114.0833,52.61,71,64,5.61,RU,1627341706
Codrington,-38.2667,141.9667,48.92,70,20,17.74,AU,1627341940
Saint George,37.1041,-113.5841,90.03,43,50,11.54,US,1627341844
Souillac,-20.5167,57.5167,68.38,94,75,17.27,MU,1627341940
Bambous Virieux,-20.3428,57.7575,68.25,94,75,17.27,MU,1627341691
Moerai,-22.4333,-151.3333,75.42,84,87,14.29,PF,1627341791
Mana,5.6592,-53.7767,78.39,84,31,6.53,GF,1627341941
Bredasdorp,-34.5322,20.0403,52.92,62,84,4.61,ZA,1627341687
Saint-Pierre,-21.3393,55.4781,64.04,88,75,5.75,RE,1627341672
Saldanha,-33.0117,17.9442,55.45,83,26,9.55,ZA,1627341839
Atambua,-9.1061,124.8925,70.88,77,36,3.29,ID,1627341895
Marawi,7.9986,124.2928,73.65,82,100,5.48,PH,1627341700
At-Bashi,41.1702,75.8106,60.06,48,20,1.21,KG,1627341898
Marsá Maţrūḩ,31.3525,27.2453,77.2,73,40,11.5,EG,1627341630
Bambanglipuro,-7.95,110.2833,70.93,91,12,4.32,ID,1627341693
Thompson,55.7435,-97.8558,71.76,33,40,5.75,CA,1627341710
Arraial do Cabo,-22.9661,-42.0278,71.56,78,0,13.8,BR,1627341745
Neuquén,-38.9516,-68.0591,48.09,40,0,5.75,AR,1627341942
Tiksi,71.6872,128.8694,38.75,87,69,9.89,RU,1627341827
Pevek,69.7008,170.3133,36.64,88,89,15.66,RU,1627341862
Sakakah,29.9697,40.2064,96.37,23,6,6.64,SA,1627341942
Portland,45.5234,-122.6762,92.64,41,20,3.0,US,1627341173
Nanortalik,60.1432,-45.2371,49.55,76,37,4.83,GL,1627341727
Norman Wells,65.282,-126.8329,64.44,55,90,11.5,CA,1627341899
Dikson,73.5069,80.5464,37.99,100,100,4.61,RU,1627341670
Reitz,-27.8014,28.4273,38.93,35,26,4.45,ZA,1627341943
Ondangwa,-17.9167,15.95,51.8,50,0,4.61,NA,1627341944
Loandjili,-4.7561,11.8578,71.71,94,20,0.0,CG,1627341944
Belmonte,-15.8631,-38.8828,70.3,85,5,5.46,BR,1627341898
Opuwo,-18.0607,13.84,59.04,34,0,7.05,NA,1627341944
Shudayag,63.5266,53.6058,44.47,94,50,8.79,RU,1627341945
Sørland,67.667,12.6934,53.13,93,16,11.43,NO,1627341945
Honiara,-9.4333,159.95,80.01,82,100,6.67,SB,1627341945
Zhangaözen,43.3,52.8,82.9,25,32,18.03,KZ,1627341945
Jardim,-21.4803,-56.1381,77.32,37,68,4.52,BR,1627341946
Shakawe,-18.3667,21.85,47.32,47,3,6.13,BW,1627341946
Killybegs,54.6333,-8.45,58.44,92,100,5.32,IE,1627341946
Juegang,32.3174,121.1855,77.7,96,100,27.94,CN,1627341947
Novocheremshansk,54.3571,50.1666,57.07,71,36,5.73,RU,1627341947
Energetik,51.7445,58.7934,56.89,59,5,6.73,RU,1627341947
Castro,-24.7911,-50.0119,58.44,65,4,4.41,BR,1627341928
Belyy Yar,53.6039,91.3903,66.09,88,0,0.0,RU,1627341897
Nova Odesa,47.3078,31.7851,77.58,41,57,6.53,UA,1627341948
Solnechnyy,50.7214,136.6319,68.36,96,100,1.07,RU,1627341948
Tuy Hoa,13.0833,109.3,82.8,68,27,16.87,VN,1627341948
Jambi City,-1.6,103.6167,69.67,90,19,2.89,ID,1627341949
Chokwé,-24.5333,32.9833,57.42,88,0,3.69,MZ,1627341949
Conil,44.9673,3.7177,48.9,93,6,1.9,FR,1627341949
Galveston,29.3669,-94.9669,99.14,68,1,1.99,US,1627341949
Coquimbo,-29.9533,-71.3436,55.13,87,0,6.91,CL,1627341626
Brae,60.3964,-1.353,58.91,96,87,13.89,GB,1627341910
Broome,42.2506,-75.833,81.5,54,1,6.91,US,1627341854
Ayan,56.45,138.1667,68.99,59,4,8.01,RU,1627341950
Saint-Philippe,-21.3585,55.7679,63.95,79,66,11.88,RE,1627341536
Isangel,-19.55,169.2667,78.91,65,75,5.75,VU,1627341674
Port Lincoln,-34.7333,135.8667,56.48,49,37,24.76,AU,1627341716
Barrow,71.2906,-156.7887,48.22,87,90,8.05,US,1627341819
Lompoc,34.6391,-120.4579,77.77,76,75,6.91,US,1627341880
Zhengjiatun,43.5064,123.5064,79.34,71,53,15.03,CN,1627341951
Esperance,-33.8667,121.9,56.23,64,34,31.9,AU,1627341848
Margate,51.3813,1.3862,65.03,90,45,1.99,GB,1627341951
Boa Vista,2.8197,-60.6733,82.38,74,75,10.36,BR,1627341914
Linköping,58.4109,15.6216,68.41,88,90,4.61,SE,1627341952
Huarmey,-10.0681,-78.1522,66.45,80,22,11.81,PE,1627341952
Constitución,-35.3333,-72.4167,47.52,67,0,13.18,CL,1627341793
Leningradskiy,69.3833,178.4167,41.95,79,63,7.27,RU,1627341868
Bandarbeyla,9.4942,50.8122,77.07,75,21,25.81,SO,1627341952
Port Alfred,-33.5906,26.891,61.5,33,100,10.25,ZA,1627341817
Tura,25.5198,90.2201,75.7,95,100,3.78,IN,1627341892
Grindavik,63.8424,-22.4338,49.95,93,90,6.91,IS,1627341869
Grand Gaube,-20.0064,57.6608,68.4,86,37,5.01,MU,1627341953
Charyshskoye,51.3978,83.5598,59.02,98,100,3.18,RU,1627341953
Havre-St-Pierre,50.2334,-63.5986,64.76,88,40,3.44,CA,1627341954
Bonavista,48.6499,-53.1147,60.8,80,17,14.07,CA,1627341882
Tuni,17.35,82.55,80.65,80,75,8.77,IN,1627341954
Mogadishu,2.0371,45.3438,75.99,82,82,21.74,SO,1627341954
Walker,30.7335,-95.5669,98.35,36,1,5.75,US,1627341955
Riberalta,-10.9833,-66.1,88.0,58,20,0.0,BO,1627341955
Lebu,-37.6167,-73.65,47.16,71,12,16.89,CL,1627341821
Port Augusta,-32.5,137.7667,62.71,42,16,24.4,AU,1627341687
Mufulira,-12.5498,28.2407,36.01,59,100,7.11,ZM,1627341955
Pāsighāt,28.0667,95.3333,76.55,98,100,3.4,IN,1627341956
Sistranda,63.7256,8.834,69.76,71,60,8.3,NO,1627341956
Ancud,-41.8697,-73.8203,44.13,76,54,6.69,CL,1627341747
Ambovombe,-25.1667,46.0833,63.52,69,24,15.64,MG,1627341956
Mount Gambier,-37.8333,140.7667,49.05,64,35,13.35,AU,1627341672
Pahrump,36.2083,-115.9839,89.06,76,95,1.99,US,1627341705
Nikolskoye,59.7035,30.7861,63.01,69,10,3.22,RU,1627341729
Casas Grandes,30.3667,-107.95,69.44,77,83,5.26,MX,1627341957
Glotovka,53.9491,46.7042,59.27,66,47,4.99,RU,1627341957
Ballina,-28.8667,153.5667,55.78,56,0,4.09,AU,1627341762
Chimoré,-16.9833,-65.1333,83.23,45,71,1.61,BO,1627341958
Arman',59.7,150.1667,60.8,76,89,6.87,RU,1627341958
Norden,53.6,7.2,65.97,93,31,8.84,DE,1627341958
Cayenne,4.9333,-52.3333,82.09,81,0,3.0,GF,1627341616
Sioux Lookout,50.1001,-91.917,66.58,72,90,5.75,CA,1627341849
San Felipe,10.3399,-68.7425,74.89,90,62,2.62,VE,1627341641
Scarborough,54.2797,-0.4044,63.54,88,9,7.74,GB,1627341778
Asău,46.4333,26.4,66.96,79,56,5.12,RO,1627341851
Tiarei,-17.5333,-149.3333,84.22,73,50,6.76,PF,1627341959
Kuala Terengganu,5.3302,103.1408,76.95,88,20,4.61,MY,1627341959
Chuka,-0.3332,37.6459,57.25,73,51,3.29,KE,1627341732
Nouadhibou,20.931,-17.0347,69.78,88,0,21.85,MR,1627341576
Hesperia,34.4264,-117.3009,88.83,33,68,10.0,US,1627341960
La Ronge,55.1001,-105.2842,75.45,35,20,5.75,CA,1627341769
Pindiga,9.9833,10.9333,69.37,98,100,6.29,NG,1627341960
Longyearbyen,78.2186,15.6401,42.64,87,75,2.3,SJ,1627341668
Jacmel,18.2342,-72.5347,85.84,78,65,3.56,HT,1627341718
Kumul,42.8,93.45,82.4,22,4,12.17,CN,1627341845
Palu,-0.8917,119.8707,76.62,89,62,3.11,ID,1627341947
Padang,-0.9492,100.3543,77.05,89,21,3.87,ID,1627341898
Kangaatsiaq,68.3065,-53.4641,48.47,85,100,13.53,GL,1627341961
Srīvardhan,18.0333,73.0167,80.11,85,76,17.34,IN,1627341961
Calama,-22.4667,-68.9333,54.09,14,0,10.36,CL,1627341962
Prince Rupert,54.3161,-130.3201,56.89,91,90,6.91,CA,1627341797
Champerico,14.3,-91.9167,87.76,69,87,4.43,GT,1627341962
Breytovo,58.2993,37.8617,63.12,68,54,6.17,RU,1627341963
Dombarovskiy,50.7587,59.5386,65.7,46,99,4.99,RU,1627341963
Kundiawa,-6.0167,144.9667,69.85,80,100,0.2,PG,1627341963
Sterling,39.0062,-77.4286,87.37,71,75,1.99,US,1627341627
Qaanaaq,77.484,-69.3632,42.08,80,100,9.95,GL,1627341827
Kamen'-Rybolov,44.7481,132.0403,76.98,75,99,7.7,RU,1627341964
Kavieng,-2.5744,150.7967,83.66,69,42,7.54,PG,1627341791
Turbat,26.0023,63.044,83.68,77,48,5.14,PK,1627341964
Villa María,-32.4075,-63.2402,50.81,50,8,8.86,AR,1627341965
Roebourne,-20.7833,117.1333,67.59,71,57,7.4,AU,1627341965
Haines Junction,60.7522,-137.5108,57.15,77,100,2.3,CA,1627341618
Dhidhdhoo,6.8833,73.1,81.66,77,100,13.35,MV,1627341965
São João da Barra,-21.6403,-41.0511,71.91,80,0,17.6,BR,1627341801
Kruisfontein,-34.0033,24.7314,66.88,27,68,15.08,ZA,1627341843
Kyzyl-Suu,42.3414,78.0056,66.97,30,0,6.35,KG,1627341725
Yārāda,17.65,83.2667,84.52,89,75,9.22,IN,1627341911
Soteapan,18.2333,-94.8667,82.83,74,71,4.5,MX,1627341966
Royan,45.6285,-1.0281,66.18,81,100,3.71,FR,1627341966
Lata,40.1629,-8.3327,63.01,98,3,2.73,PT,1627341967
Mosetse,-20.75,26.65,48.13,66,0,14.79,BW,1627341967
Laas,46.6166,10.7002,63.48,86,60,2.71,IT,1627341719
Córdoba,-31.4135,-64.1811,54.25,47,0,3.0,AR,1627341751
Myitkyina,25.3833,97.4,75.22,99,93,0.87,MM,1627341967
Half Moon Bay,37.4636,-122.4286,93.63,65,75,1.99,US,1627341967
Aksha,50.2814,113.2867,57.7,89,99,2.37,RU,1627341968
Tamandaré,-8.7597,-35.1047,74.12,88,36,8.48,BR,1627341968
Podareš,41.6139,22.5422,69.6,57,15,4.18,MK,1627341969
Harper,4.375,-7.7169,76.23,77,95,10.04,LR,1627341969
Saint-François,46.4154,3.9054,61.41,90,0,0.0,FR,1627341969
Katherine,-14.4667,132.2667,68.32,64,92,3.44,AU,1627341878
Shimoda,34.6667,138.95,80.71,88,100,3.6,JP,1627341802
Piaçabuçu,-10.4056,-36.4344,72.86,89,8,10.18,BR,1627341970
Touros,-5.1989,-35.4608,72.5,83,2,11.14,BR,1627341850
Itoman,26.1247,127.6694,82.78,89,40,11.5,JP,1627341970
Avera,33.194,-82.5271,96.91,49,11,5.75,US,1627341768
Saint-Joseph,-21.3667,55.6167,62.96,78,45,12.17,RE,1627341653
Puerto Escondido,15.85,-97.0667,86.83,62,90,6.91,MX,1627341970
Great Yarmouth,52.6083,1.7305,64.45,92,85,8.99,GB,1627341971
São Filipe,14.8961,-24.4956,75.18,82,24,10.04,CV,1627341692
Baní,18.2833,-70.3333,81.86,80,99,9.55,DO,1627341747
Abnūb,27.2696,31.1511,80.82,25,0,7.78,EG,1627341971
Lavrentiya,65.5833,-171.0,45.66,98,100,3.62,RU,1627341855
Cidreira,-30.1811,-50.2056,62.11,98,100,3.85,BR,1627341840
Fairbanks,64.8378,-147.7164,71.94,49,1,12.66,US,1627341853
Alice Springs,-23.7,133.8833,67.55,18,52,21.85,AU,1627341727
Marevo,57.3146,32.0804,60.66,70,0,4.54,RU,1627341972
Tsaratanana,-16.7833,47.65,62.06,75,40,11.5,MG,1627341972
Tshela,-4.9833,12.9333,66.69,94,100,1.32,CD,1627341973
Kongolo,-5.3833,27.0,70.86,38,65,4.5,CD,1627341973
Adrar,20.5022,-10.0711,93.18,17,2,15.9,MR,1627341973
Sokoni,-6.4333,39.55,75.56,76,13,19.3,TZ,1627341858
Port-Gentil,-0.7193,8.7815,76.96,78,75,8.05,GA,1627341749
Kabo,7.6994,18.629,71.08,94,100,1.32,CF,1627341974
Diffa,13.3154,12.6113,76.57,83,93,8.25,NE,1627341974
Sembakung,3.8167,117.25,76.93,98,94,1.72,ID,1627341974
Verkhnyaya Sinyachikha,57.976,61.6673,50.76,88,17,7.02,RU,1627341975
Mayor Pablo Lagerenza,-19.9309,-60.7718,82.94,30,0,4.79,PY,1627341975
Tashtyp,52.7939,89.8983,61.68,95,86,3.96,RU,1627341975
Aitape,-3.1374,142.3475,82.2,74,49,4.99,PG,1627341669
Chumikan,54.7183,135.315,69.08,60,100,4.52,RU,1627341976
Mīzan Teferī,6.9833,35.5833,58.86,97,100,2.48,ET,1627341976
Hobyo,5.3505,48.5268,76.48,74,46,22.32,SO,1627341976
Verkhnyaya Toyma,62.2349,44.9985,43.3,83,43,4.88,RU,1627341977
Maïné Soroa,13.2114,12.0241,76.15,82,100,9.17,NE,1627341679
Tambopata,-12.7333,-69.1833,83.1,47,38,1.19,PE,1627341977
Rio Pardo de Minas,-15.6097,-42.5397,63.72,56,27,5.75,BR,1627341977
Horizontina,-27.6258,-54.3078,64.6,87,100,4.56,BR,1627341977
Havelock,34.8791,-76.9013,85.05,85,65,5.99,US,1627341978
Mingora,34.7758,72.3625,82.47,72,96,2.35,PK,1627341978
Marechal Cândido Rondon,-24.5561,-54.0567,67.26,60,63,4.38,BR,1627341978
Virginia Beach,36.8529,-75.978,82.45,84,90,10.36,US,1627341760
Goderich,43.7501,-81.7165,80.91,57,0,2.3,CA,1627341760
Buraidah,26.326,43.975,97.25,15,43,12.75,SA,1627341979
Sinop Province,41.7711,34.8709,63.52,88,100,6.64,TR,1627341700
Ostrovnoy,68.0531,39.5131,45.99,85,100,23.51,RU,1627341896
Dubbo,-32.25,148.6167,48.33,81,26,4.61,AU,1627341642
Nome,64.5011,-165.4064,50.07,87,90,9.22,US,1627341980
Yar-Sale,66.8333,70.8333,47.01,79,15,7.54,RU,1627341846
Daultala,33.1925,73.1413,81.63,71,100,14.07,PK,1627341980
Vardø,70.3705,31.1107,46.42,86,57,9.22,NO,1627341886
Evensk,61.95,159.2333,53.08,87,96,0.83,RU,1627341829
Colares,38.7992,-9.4469,68.29,75,0,11.99,PT,1627341980
Paciran,-6.8767,112.3761,71.71,87,4,5.53,ID,1627341981
Nara,34.6851,135.8049,85.98,94,86,6.91,JP,1627341873
Ronneby,56.21,15.276,66.7,100,90,11.5,SE,1627341981
Shunyi,40.125,116.6453,78.84,100,90,4.47,CN,1627341982
Barcelona,41.3888,2.159,76.96,76,0,1.01,ES,1627341773
Lorengau,-2.0226,147.2712,83.34,75,80,3.42,PG,1627341750
Okhotsk,59.3833,143.3,67.8,69,0,7.54,RU,1627341804
Ixtapa,20.7,-105.2,87.22,74,75,6.91,MX,1627341844
Artigas,-30.4,-56.4667,55.42,87,99,16.17,UY,1627341982
Nizhniy Tsasuchey,50.5167,115.1333,60.42,81,41,9.51,RU,1627341983
Port Blair,11.6667,92.75,81.66,85,100,19.08,IN,1627341676
Kaitangata,-46.2817,169.8464,45.97,80,68,7.92,NZ,1627341835
Acaraú,-2.8856,-40.12,79.38,79,31,19.17,BR,1627341983
Phayao,19.25,100.25,71.71,99,97,2.48,TH,1627341983
Ngunguru,-35.6167,174.5,60.17,68,7,16.42,NZ,1627341921
Carnarvon,-24.8667,113.6333,68.07,78,75,9.22,AU,1627341866
Onda,39.9667,-0.25,72.14,76,5,4.07,ES,1627341984
Algiers,36.7525,3.042,73.22,83,75,4.61,DZ,1627341920
Aquiraz,-3.9014,-38.3911,82.22,66,26,11.9,BR,1627341778
Charalá,6.2858,-73.1472,67.06,97,95,0.92,CO,1627341984
Sambava,-14.2667,50.1667,69.21,81,87,13.85,MG,1627341985
Vanimo,-2.6741,141.3028,80.98,72,68,5.14,PG,1627341863
Bubaque,11.2833,-15.8333,80.24,83,100,12.44,GW,1627341985
Ribeira Grande,38.5167,-28.7,70.95,89,14,13.06,PT,1627341820
Port Hardy,50.6996,-127.4199,62.78,77,75,10.36,CA,1627341673
Najrān,17.4924,44.1277,84.85,34,81,0.78,SA,1627341709
Vestmannaeyjar,63.4427,-20.2734,50.95,82,100,13.11,IS,1627341841
Sibu,2.3,111.8167,75.51,94,40,2.3,MY,1627341986
Sitka,57.0531,-135.33,62.49,72,40,6.91,US,1627341840
Burkburnett,34.0979,-98.5706,100.87,38,20,1.01,US,1627341788
College,64.8569,-147.8028,71.92,48,75,12.66,US,1627341700
Tinde,-3.8833,33.2,61.63,43,48,5.26,TZ,1627341986
Bud,39.447,-86.1758,87.78,50,0,5.32,US,1627341986
Port Macquarie,-31.4333,152.9167,59.9,60,1,3.94,AU,1627341987
Deputatsky,69.3,139.9,42.75,88,100,3.13,RU,1627341934
Rio Grande,-32.035,-52.0986,50.95,94,100,17.43,BR,1627341701
Puerto del Rosario,28.5004,-13.8627,73.15,83,20,11.5,ES,1627341763
Magrath,49.4167,-112.8686,91.72,23,21,10.36,CA,1627341987
Tigil',57.8,158.6667,56.84,95,100,18.72,RU,1627341988
Willowmore,-33.2926,23.4895,50.04,42,95,5.97,ZA,1627341988
Hamilton,39.1834,-84.5333,88.0,49,20,1.01,US,1627341779
Pravia,43.4906,-6.1508,64.69,82,75,0.0,ES,1627341988
Launceston,-41.45,147.1667,53.8,97,90,1.01,AU,1627341847
Bonthe,7.5264,-12.505,76.8,86,80,9.31,SL,1627341913
Ordu,40.9086,37.6845,64.9,93,79,6.06,TR,1627341989
Xichang,27.8964,102.2634,65.23,89,82,2.35,CN,1627341989
Dewā,27.0333,81.1667,82.4,84,100,2.71,IN,1627341990
Altamont,42.2068,-121.7372,96.78,25,1,1.01,US,1627341990
Gushikawa,26.3544,127.8686,81.99,89,75,12.66,JP,1627341990
Lüderitz,-26.6481,15.1594,63.5,53,0,4.16,NA,1627341863
Chiang Khong,20.2613,100.4046,75.52,100,99,0.94,TH,1627341991
Xinyu,27.8043,114.9334,79.65,79,9,9.01,CN,1627341991
Pangnirtung,66.1451,-65.7125,55.72,84,71,2.91,CA,1627341608
Almaznyy,48.0448,40.045,75.34,45,38,9.73,RU,1627341949
Mareeba,-17.0,145.4333,71.47,79,79,4.88,AU,1627341883
Manoel Urbano,-8.8389,-69.2597,83.7,53,92,3.96,BR,1627341991
Northam,51.0333,-4.2167,65.01,95,100,9.31,GB,1627341863
Kashgar,39.4547,75.9797,87.01,21,0,8.95,CN,1627341992
Yerköy,39.6381,34.4672,65.91,71,3,4.18,TR,1627341992
Airai,-8.9266,125.4092,60.19,52,32,2.77,TL,1627341830
Médéa,36.2642,2.7539,64.85,56,62,1.7,DZ,1627341993
Madimba,-10.4,40.3333,68.45,85,9,10.67,TZ,1627341993
Kiryat Gat,31.61,34.7642,80.82,82,0,5.1,IL,1627341878
Sicuani,-14.2694,-71.2261,50.97,29,5,5.41,PE,1627341832
Luangwa,-15.6167,30.4167,56.26,80,42,3.4,ZM,1627341898
Nishihara,26.1842,127.7558,82.06,89,40,11.5,JP,1627341716
Aklavik,68.2191,-135.0107,63.32,77,90,3.44,CA,1627341688
North Bend,43.4065,-124.2243,76.24,77,90,23.02,US,1627341861
Kotelnikowo,47.6317,43.1461,78.8,30,79,15.82,RU,1627341994
Katubao,5.8892,124.8294,81.61,80,93,5.08,PH,1627341994
Selishche,56.8879,33.2691,58.19,76,0,3.51,RU,1627341995
Umluj,25.0213,37.2685,86.65,53,18,9.22,SA,1627341763
Kenai,60.5544,-151.2583,66.02,76,1,9.22,US,1627341590
Punta de Piedra,7.6176,-71.4916,73.11,96,100,1.45,VE,1627341995
Gisborne,-38.6533,178.0042,56.95,62,50,10.6,NZ,1627341995
Guerrero Negro,27.9769,-114.0611,77.31,56,0,15.03,MX,1627341845
Sabha,27.0377,14.4283,83.53,24,0,13.89,LY,1627341996
Diego de Almagro,-26.3667,-70.05,52.34,53,0,4.29,CL,1627341996
Coahuayana Viejo,18.7333,-103.6833,89.08,71,47,5.19,MX,1627341849
Ribas do Rio Pardo,-20.4431,-53.7592,77.52,30,0,4.81,BR,1627341996
Sindor,62.8629,51.8905,42.44,95,18,8.1,RU,1627341997
Christchurch,-43.5333,172.6333,48.99,88,90,6.91,NZ,1627341738
Vilhena,-12.7406,-60.1458,77.22,53,0,4.61,BR,1627341997
Ondjiva,-17.0667,15.7333,55.13,38,0,8.39,AO,1627341841
Matagami,49.7502,-77.6328,55.51,76,90,10.36,CA,1627341863
Dauriya,49.9333,116.8667,62.13,79,95,5.12,RU,1627341997
Pandamatenga,-18.5278,25.627,48.61,51,1,5.91,BW,1627341998
Quryq,43.2,51.65,86.47,25,34,21.68,KZ,1627341998
Kasangulu,-4.5911,15.1708,74.28,44,94,8.23,CD,1627341998
Tevaitoa,-16.7833,-151.5,78.75,74,54,12.35,PF,1627341999
Leh,34.1667,77.5833,70.16,37,92,8.59,IN,1627341999
Tezu,27.9167,96.1667,76.46,99,100,3.15,IN,1627341999
Gerede,40.8008,32.1969,52.68,94,3,2.1,TR,1627341939
Fort Saint James,54.4333,-124.25,66.54,56,74,5.86,CA,1627342000
Galesong,-5.3166,119.3661,68.02,65,13,8.66,ID,1627342001
Boda,4.3189,17.4695,70.34,94,100,1.23,CF,1627342001
Ketchikan,55.3422,-131.6461,61.27,82,90,14.97,US,1627342001
Chapais,49.7834,-74.8492,55.18,91,93,9.73,CA,1627341926
Comodoro Rivadavia,-45.8667,-67.5,46.26,49,0,13.8,AR,1627341648
Mamboma,8.0833,-11.6833,72.25,98,76,2.55,SL,1627342002
Katobu,-4.9408,122.5276,73.22,87,35,2.57,ID,1627342002
Dnestrovsc,46.6222,29.9133,71.96,49,1,2.66,MD,1627342002
San Jose de Guanipa,8.8872,-64.1651,78.8,74,89,5.84,VE,1627342003
Mehamn,71.0357,27.8492,45.14,89,27,3.69,NO,1627342003
Bairiki Village,1.3292,172.9752,86.0,66,20,5.75,KI,1627342003
Vila Franca do Campo,37.7167,-25.4333,70.21,88,50,6.6,PT,1627341597
Nantucket,41.2835,-70.0995,81.01,88,75,9.22,US,1627341608
Coração de Jesus,-16.6853,-44.365,70.52,47,4,6.49,BR,1627342004
Muborak,39.2553,65.1528,85.17,20,0,18.59,UZ,1627342004
Harrison,30.4091,-89.0436,89.67,69,1,8.05,US,1627342004
Huadian,42.9633,126.7478,76.55,75,100,2.01,CN,1627342005
Westport,41.1415,-73.3579,87.62,55,1,1.99,US,1627341833
Atar,20.5169,-13.0499,96.08,18,19,6.2,MR,1627341841
Saint-Leu,-21.15,55.2833,63.43,74,39,9.64,RE,1627342005
Ereymentau,51.6199,73.1033,52.99,62,0,3.62,KZ,1627342006
Balkanabat,39.5108,54.3671,85.39,64,0,4.7,TM,1627342006
Llangefni,53.2556,-4.3106,62.65,85,20,6.91,GB,1627342006
Salalah,17.0151,54.0924,78.89,83,75,4.61,OM,1627341885
Ust-Nera,64.5667,143.2,53.67,92,100,5.84,RU,1627341828
Guadalupe Victoria,32.2869,-115.105,106.95,25,17,12.06,MX,1627342007
Gobabis,-22.45,18.9667,44.76,50,0,12.08,NA,1627342007
Ajdabiya,30.7554,20.2263,77.43,51,0,9.86,LY,1627342007
Aripuanã,-9.1667,-60.6333,82.56,40,19,1.16,BR,1627342007
Aranos,-24.1333,19.1167,47.64,42,0,15.01,NA,1627342008
Bahía Honda,22.9036,-83.1592,81.86,75,68,2.33,CU,1627342008
Kokoda,-8.8785,147.7407,78.37,83,97,1.88,PG,1627342009
Tarko-Sale,64.9225,77.785,47.57,94,100,20.47,RU,1627342009
Romodanovo,54.4275,45.3296,58.75,68,59,5.14,RU,1627342009
Licheng,23.2955,113.8284,85.93,82,89,0.89,CN,1627342009
Zyryanka,65.75,150.85,54.84,47,69,16.28,RU,1627341742
Havøysund,70.9963,24.6622,50.88,83,53,8.5,NO,1627341920
Semīrom,31.4167,51.5667,66.02,22,0,5.97,IR,1627342010
Tiznit Province,29.5833,-9.5,70.61,69,2,2.33,MA,1627342010
Kununurra,-15.7667,128.7333,67.98,83,100,4.61,AU,1627341866
Nkhotakota,-12.9274,34.2961,63.59,68,37,15.21,MW,1627342011
Vetluga,57.8557,45.781,56.21,88,62,5.12,RU,1627342011
Sampit,-2.5333,112.95,72.9,92,6,2.71,ID,1627342011
Port Moresby,-9.4431,147.1797,81.82,69,75,11.5,PG,1627342012
Yulara,-25.2406,130.9889,58.84,26,22,8.05,AU,1627341834
Ampanihy,-24.7,44.75,61.38,68,67,15.82,MG,1627342012
Praia da Vitória,38.7333,-27.0667,73.76,88,75,8.28,PT,1627342012
Bilma,18.6853,12.9164,92.75,38,99,7.36,NE,1627341720
Fort-Shevchenko,44.5086,50.263,81.36,50,90,31.63,KZ,1627342013
Teahupoo,-17.8333,-149.2667,78.76,73,52,8.95,PF,1627342013
Anchorage,61.2181,-149.9003,69.85,63,1,1.01,US,1627341840
Elko,41.0002,-115.5012,98.74,6,24,5.99,US,1627342014
Luleå,65.5842,22.1547,62.67,94,90,6.91,SE,1627342014
Krasnosel'kup,65.7,82.4667,55.2,96,100,13.49,RU,1627341933
Pangoa,-12.1167,-73.0,73.83,68,0,2.19,PE,1627342014
Chhātak,25.0333,91.6667,80.04,91,100,3.22,BD,1627342014
Saint Augustine,29.8947,-81.3145,85.05,94,40,6.91,US,1627341982
Ntungamo,-0.8833,29.65,68.56,59,94,1.86,UG,1627342015
Laguna,38.421,-121.4238,98.24,25,1,4.0,US,1627341831
Ōhara,35.25,140.3833,77.95,89,96,22.84,JP,1627342015
Barranca,-10.75,-77.7667,63.93,83,27,9.78,PE,1627342016
Malbork,54.0359,19.0266,69.89,96,83,5.23,PL,1627342016
Bara,10.3744,10.7288,71.47,97,100,6.67,NG,1627342016
Turukhansk,65.8167,87.9833,74.23,53,65,17.54,RU,1627342016
Denpasar,-8.65,115.2167,73.06,94,20,1.14,ID,1627341890
Masterton,-40.9597,175.6575,54.88,70,66,9.26,NZ,1627342017
Chowchilla,37.123,-120.2602,102.54,17,1,6.91,US,1627342017
Santa Vitória do Palmar,-33.5189,-53.3681,48.74,81,69,10.58,BR,1627342017
Chantilly,38.8943,-77.4311,87.82,71,75,1.99,US,1627342018
Camopi,3.1655,-52.3158,72.21,97,80,2.98,GF,1627342018
Pervomayskoye,43.919,46.7102,74.16,70,99,4.16,RU,1627342018
Kasongo-Lunda,-6.4667,16.8167,70.65,35,64,2.51,CD,1627342019
Mahanoro,-19.9,48.8,62.28,88,34,9.08,MG,1627342019
La Cruz,23.9167,-106.9,89.47,72,25,8.99,MX,1627342019
Bourail,-21.5667,165.4833,69.91,57,100,9.78,NC,1627342019
Talnakh,69.4865,88.3972,69.08,72,75,7.58,RU,1627341838
Katsuura,35.1333,140.3,78.12,88,89,23.62,JP,1627342020
Inuvik,68.3499,-133.7218,63.36,79,75,3.44,CA,1627342020
Bhātāpāra,21.7333,81.9333,79.92,76,100,12.08,IN,1627342020
Nioro,13.35,-15.75,79.05,75,85,8.93,GM,1627341881
Akureyri,65.6835,-18.0878,49.93,93,20,9.22,IS,1627342021
Benguela,-12.5763,13.4055,69.84,85,64,1.19,AO,1627342021
Bathsheba,13.2167,-59.5167,81.21,78,20,14.97,BB,1627341826
Salihorsk,52.7876,27.5415,63.57,90,82,9.42,BY,1627342021
Mt. Pleasant,32.7941,-79.8626,87.01,83,75,1.01,US,1627341780
Lebedinyy,58.5167,125.5167,64.45,68,39,0.56,RU,1627342022
Celestún,20.8667,-90.4,85.71,67,12,9.66,MX,1627342022
Petropavlovsk-Kamchatskiy,53.0452,158.6483,75.79,61,40,15.66,RU,1627341621
Bayanday,53.0661,105.5139,60.85,69,3,5.57,RU,1627342022
Waingapu,-9.6567,120.2641,73.81,82,60,4.56,ID,1627342023
Lahat,-3.8,103.5333,66.07,74,4,3.44,ID,1627342023
Atikokan,48.7555,-91.6216,80.94,33,77,11.41,CA,1627341869
Port Shepstone,-30.7414,30.455,57.45,66,93,6.85,ZA,1627342023
Ahipara,-35.1667,173.1667,58.26,68,15,17.0,NZ,1627341694
‘Ewa Beach,21.3156,-158.0072,89.55,49,40,12.66,US,1627342024
Vila Velha,-20.3297,-40.2925,71.55,88,40,6.91,BR,1627341875
Voiron,45.3639,5.5921,68.27,81,6,2.93,FR,1627342024
Remedios,22.4947,-79.5458,79.72,75,69,9.15,CU,1627342025
Paramirim,-13.4425,-42.2389,72.3,54,58,5.5,BR,1627342025
Houma,29.5958,-90.7195,91.98,76,40,5.75,US,1627342025
Vila,42.0304,-8.1588,58.75,86,7,2.73,PT,1627341730
Kaffrine,14.1059,-15.5508,84.09,70,70,12.95,SN,1627341917
Ust'-Kan,50.9276,84.761,55.67,98,96,1.83,RU,1627342026
Mount Isa,-20.7333,139.5,60.57,36,80,0.0,AU,1627341842
Gao,16.6362,1.637,92.17,38,84,9.1,ML,1627341929
Byron Bay,-28.65,153.6167,64.06,52,0,1.95,AU,1627341965
Todos Santos,23.45,-110.2167,94.3,80,4,5.57,MX,1627342026
Paamiut,61.994,-49.6678,45.91,91,70,8.52,GL,1627341822
Hokitika,-42.7167,170.9667,52.32,73,87,16.26,NZ,1627342026
Alta Floresta,-9.8756,-56.0861,79.7,35,57,2.73,BR,1627341822
Matara,5.9485,80.5353,78.93,89,94,10.78,LK,1627342027
Milpitas,37.4283,-121.9066,93.83,41,90,11.5,US,1627342013
Minggang,32.4586,114.0486,78.35,90,85,10.02,CN,1627342027
Halifax,44.6453,-63.5724,71.49,90,90,1.99,CA,1627341950
Beringovskiy,63.05,179.3167,53.74,91,100,7.23,RU,1627341804
Ambulu,-8.345,113.6058,69.62,91,22,3.24,ID,1627342028
Faanui,-16.4833,-151.75,79.16,73,63,12.28,PF,1627341829
Marabba,12.35,32.1833,70.74,87,90,8.5,SD,1627342028
Marapanim,-0.7175,-47.6997,74.61,92,65,4.63,BR,1627342028
Svetlaya,46.5389,138.3297,73.65,84,99,3.78,RU,1627342029
Altay,47.8667,88.1167,65.3,53,6,4.74,CN,1627341847
Balkhash,46.844,74.9804,69.57,48,0,18.34,KZ,1627342029
Formosa,-26.1775,-58.1781,58.98,88,90,12.66,AR,1627342029
Campbell River,50.0163,-125.2446,79.18,42,20,6.91,CA,1627342030
Brantford,43.1334,-80.2664,86.18,38,0,5.01,CA,1627342030
Saint-Ambroise,48.5501,-71.3324,72.14,80,53,10.16,CA,1627342030
Husavik,66.0449,-17.3389,49.91,81,77,3.49,IS,1627341682
Hastings,50.8552,0.5729,64.15,99,73,11.05,GB,1627342031
Barpathār,26.3,93.8667,77.67,98,100,2.93,IN,1627342031
Huaral,-11.495,-77.2078,60.73,81,9,4.97,PE,1627342031
Khāsh,28.2211,61.2158,81.64,16,47,5.08,IR,1627342031
Kavaratti,10.5669,72.642,81.18,80,100,19.22,IN,1627341865
Seoul,37.5683,126.9778,87.37,60,0,2.3,KR,1627342032
The Valley,18.217,-63.0578,82.81,74,20,11.5,AI,1627341940
Ocampo,21.65,-101.5,74.28,26,20,12.12,MX,1627341823
Morón,-34.6534,-58.6198,53.96,50,74,7.52,AR,1627342032
Bethal,-26.4579,29.4655,37.53,46,5,4.41,ZA,1627342032
Bose,45.4612,8.0137,67.28,89,52,3.4,IT,1627342033
Allāpalli,19.4167,80.0667,75.81,92,100,4.41,IN,1627342033
Saint Anthony,45.0205,-93.218,89.74,45,1,10.36,US,1627341613
